City,Lat,Lng,Max Temp,Humidity,Cloudiness,Wind Speed,Country,Date
Kayerkan,69.3497,87.7602,35.13,97,100,12.46,RU,1632081430
Mataura,-46.1927,168.8643,39.47,96,32,3.87,NZ,1632081431
Koungou,-12.7336,45.2042,76.71,78,90,14.97,YT,1632081431
Severo-Kuril'sk,50.6789,156.125,50.45,97,100,12.35,RU,1632081158
Nyurba,63.2842,118.3319,23.85,91,10,2.26,RU,1632081432
Zhigansk,66.7697,123.3711,28.54,91,14,11.92,RU,1632081432
Chokurdakh,70.6333,147.9167,22.73,91,88,7.7,RU,1632081433
Birao,10.2849,22.7882,75.49,83,100,2.73,CF,1632081433
Ushuaia,-54.8,-68.3,51.46,43,75,14.97,AR,1632081178
Yellowknife,62.456,-114.3525,46.92,76,75,0.0,CA,1632081434
Westport,41.1415,-73.3579,79.77,46,10,1.01,US,1632081315
Caravelas,-17.7125,-39.2481,76.23,67,17,8.5,BR,1632081434
Albany,42.6001,-73.9662,75.61,53,5,4.9,US,1632081435
Vredendal,-31.6683,18.5012,55.45,90,34,5.75,ZA,1632081435
Jiangyou,31.7667,104.7167,65.77,85,49,5.44,CN,1632081436
Saskylakh,71.9167,114.0833,28.99,93,100,5.3,RU,1632081169
Coquimbo,-29.9533,-71.3436,60.53,63,75,6.91,CL,1632081265
Resistencia,-27.4606,-58.9839,103.98,28,0,12.66,AR,1632081437
Chui,-33.6971,-53.4616,62.92,93,100,10.02,UY,1632081437
Hithadhoo,-0.6,73.0833,82.06,76,100,1.68,MV,1632081437
Puerto Ayora,-0.7393,-90.3518,76.96,95,80,5.99,EC,1632081438
Simões,-7.5989,-40.8178,93.7,22,37,7.96,BR,1632081438
Jamestown,42.097,-79.2353,79.84,47,4,4.0,US,1632081438
Norman Wells,65.282,-126.8329,46.44,87,75,9.22,CA,1632081439
Atuona,-9.8,-139.0333,77.56,81,40,20.85,PF,1632081440
Hermanus,-34.4187,19.2345,57.9,78,0,10.78,ZA,1632081440
Torbay,47.6666,-52.7314,60.76,94,90,4.61,CA,1632081198
Bluff,-46.6,168.3333,39.79,84,84,12.55,NZ,1632081441
Paracuru,-3.41,-39.0306,82.42,69,59,14.76,BR,1632081441
Port Elizabeth,-33.918,25.5701,57.49,82,40,12.66,ZA,1632081442
New Norfolk,-42.7826,147.0587,44.1,83,91,1.01,AU,1632081442
Qinhuangdao,39.9317,119.5883,64.4,96,100,19.28,CN,1632081442
Kempsey,-31.0833,152.8333,48.04,68,0,3.31,AU,1632081443
Biasca,46.3597,8.9697,57.25,95,100,10.69,CH,1632081443
Bluefield,37.2698,-81.2223,82.18,57,100,5.99,US,1632081444
Labuhan,-6.8844,112.2051,77.34,76,60,10.58,ID,1632081444
Vestmannaeyjar,63.4427,-20.2734,50.74,81,99,25.34,IS,1632081345
Ponta do Sol,32.6667,-17.1,74.03,69,94,5.39,PT,1632081444
Hasaki,35.7333,140.8333,61.2,70,78,16.84,JP,1632081445
Tiznit Province,29.5833,-9.5,65.35,82,94,3.83,MA,1632081445
Bahía Blanca,-38.7196,-62.2724,56.5,95,100,8.21,AR,1632081446
Guerrero Negro,27.9769,-114.0611,75.97,60,3,17.34,MX,1632081446
Bjørnevatn,69.6672,29.9847,44.22,75,0,10.36,NO,1632081446
Banda Aceh,5.5577,95.3222,76.78,85,100,14.58,ID,1632081303
Angoram,-4.0625,144.0661,73.11,99,99,2.59,PG,1632081447
Upernavik,72.7868,-56.1549,26.17,58,54,5.08,GL,1632081447
Butaritari,3.0707,172.7902,83.25,64,100,16.64,KI,1632081448
Nadvoitsy,63.8667,34.3167,38.28,86,11,6.49,RU,1632081330
Hobart,-42.8794,147.3294,44.46,85,90,3.0,AU,1632081448
Māngrol,21.1167,70.1167,80.15,88,15,9.73,IN,1632081449
Raudeberg,61.9875,5.1352,58.19,82,100,3.0,NO,1632081449
Avarua,-21.2078,-159.775,77.05,78,75,16.11,CK,1632081449
Bengkulu,-3.8004,102.2655,73.92,89,90,2.98,ID,1632081450
Shingū,33.7333,135.9833,72.91,86,95,3.71,JP,1632081450
Jhudo,24.964,69.2968,85.57,69,100,16.67,PK,1632081451
Cape Town,-33.9258,18.4232,58.12,85,20,10.36,ZA,1632081249
Nizhniy Kuranakh,58.8353,125.4869,38.25,99,100,2.17,RU,1632081452
Kavieng,-2.5744,150.7967,81.32,76,19,10.25,PG,1632081452
Kapaa,22.0752,-159.319,76.98,77,69,1.01,US,1632081452
Mogadishu,2.0371,45.3438,77.45,85,7,18.92,SO,1632081453
Bredasdorp,-34.5322,20.0403,56.52,77,0,16.11,ZA,1632081453
Bilibino,68.0546,166.4372,17.11,87,31,5.08,RU,1632081454
Inírida,3.8653,-67.9239,85.62,64,55,2.57,CO,1632081454
Kaitangata,-46.2817,169.8464,41.32,92,46,5.84,NZ,1632081454
Punta Arenas,-53.15,-70.9167,50.11,57,75,31.07,CL,1632081346
Comodoro Rivadavia,-45.8667,-67.5,55.26,58,40,8.05,AR,1632081455
Kawalu,-7.3817,108.2082,69.76,96,63,1.12,ID,1632081455
Goderich,43.7501,-81.7165,78.03,52,0,6.91,CA,1632081217
General Roca,-39.0333,-67.5833,68.4,29,59,8.61,AR,1632081456
Kiryat Gat,31.61,34.7642,79.48,62,0,5.3,IL,1632081456
Metro,-5.1131,105.3067,73.89,92,98,4.7,ID,1632081457
Floriano,-6.7669,-43.0225,100.06,18,56,4.52,BR,1632081457
Tasiilaq,65.6145,-37.6368,29.75,75,90,2.84,GL,1632081457
Fukuechō,32.6881,128.8419,75.56,75,14,10.56,JP,1632081193
Beyneu,45.3167,55.2,62.38,37,100,13.73,KZ,1632081458
Khatanga,71.9667,102.5,31.73,98,100,13.98,RU,1632081458
Hong Kong,22.2855,114.1577,86.32,84,35,3.94,HK,1632081187
Zhezkazgan,47.8043,67.7144,45.64,40,0,5.99,KZ,1632081459
Beringovskiy,63.05,179.3167,39.15,89,100,8.95,RU,1632081459
Salalah,17.0151,54.0924,79.84,82,67,4.36,OM,1632081460
Vaini,-21.2,-175.2,71.76,88,40,9.22,TO,1632081460
Tutóia,-2.7619,-42.2744,85.98,73,81,13.29,BR,1632081460
Tuatapere,-46.1333,167.6833,39.81,89,48,6.85,NZ,1632081461
Dikson,73.5069,80.5464,36.19,83,100,17.6,RU,1632081461
Rikitea,-23.1203,-134.9692,73.71,75,0,11.81,PF,1632081462
Motomachi,43.8228,144.1044,49.21,87,67,4.5,JP,1632081462
DeKalb County,33.7504,-84.2333,80.73,89,100,4.21,US,1632081462
Busselton,-33.65,115.3333,48.04,80,0,11.25,AU,1632081463
Cayenne,4.9333,-52.3333,85.08,74,75,1.99,GF,1632081329
Pundaguitan,6.3711,126.1689,80.38,79,100,8.25,PH,1632081463
Faya,18.3851,42.4509,75.31,21,95,8.77,SA,1632081464
Bud,39.447,-86.1758,89.31,53,100,9.57,US,1632081201
Pisco,-13.7,-76.2167,68.05,64,20,16.11,PE,1632081388
Amahai,-3.3333,128.9167,76.69,88,60,2.55,ID,1632081465
Nānākuli,21.3906,-158.1547,79.7,88,90,4.61,US,1632081465
Cherskiy,68.75,161.3,25.0,73,19,7.81,RU,1632081196
Sitka,57.0531,-135.33,56.8,70,53,3.69,US,1632081465
Yulara,-25.2406,130.9889,62.44,88,97,6.91,AU,1632081466
Arraial do Cabo,-22.9661,-42.0278,78.76,78,20,8.05,BR,1632081168
Barrow,71.2906,-156.7887,30.22,86,90,24.16,US,1632081466
The Pas,53.8251,-101.2541,60.82,67,1,22.35,CA,1632081467
Rocha,-34.4833,-54.3333,62.46,92,100,10.74,UY,1632081446
Nouadhibou,20.931,-17.0347,80.58,78,0,11.5,MR,1632081287
Port Lincoln,-34.7333,135.8667,53.62,50,100,23.89,AU,1632081468
San Quintín,30.4833,-115.95,72.07,67,0,17.2,MX,1632081242
Bithūr,26.6333,80.2833,80.69,80,76,4.18,IN,1632081468
Saint-Louis,16.3333,-15.0,85.64,34,85,5.1,SN,1632081469
Haines Junction,60.7522,-137.5108,49.95,57,84,2.3,CA,1632081469
Lüderitz,-26.6481,15.1594,55.76,82,0,8.68,NA,1632081470
Nuuk,64.1835,-51.7216,37.0,63,97,13.85,GL,1632081471
Paamiut,61.994,-49.6678,37.06,84,87,7.38,GL,1632081266
Bay Roberts,47.5999,-53.2648,61.52,93,100,1.99,CA,1632081471
Le Port,-20.9373,55.2919,66.2,64,26,4.54,RE,1632081472
Nikolskoye,59.7035,30.7861,42.69,74,100,8.41,RU,1632081472
Tromsø,69.6496,18.957,42.82,87,0,0.0,NO,1632081472
Manali,13.1667,80.2667,86.09,76,100,8.05,IN,1632081473
Jalu,29.0331,21.5482,88.43,24,0,7.09,LY,1632081254
Cabo San Lucas,22.8909,-109.9124,91.18,69,51,6.42,MX,1632081173
Gizo Government Station,-8.103,156.8419,80.96,78,100,7.31,SB,1632081473
Esperance,-33.8667,121.9,51.64,56,96,12.3,AU,1632081250
Puerto Rico,-26.796,-55.024,95.9,37,100,0.96,AR,1632081474
Sargūr,11.9833,76.4167,70.03,93,100,3.85,IN,1632081474
Saint Paul Harbor,57.79,-152.4072,48.87,67,87,4.68,US,1632081331
Harper,4.375,-7.7169,78.37,81,88,3.49,LR,1632081475
Mount Gambier,-37.8333,140.7667,48.11,76,75,16.11,AU,1632081475
Orzu,37.5593,68.8184,66.6,19,9,2.48,TJ,1632081476
Birjand,32.8663,59.2211,70.27,17,0,6.91,IR,1632081476
Ilulissat,69.2167,-51.1,21.6,63,100,2.59,GL,1632081477
Chapais,49.7834,-74.8492,58.78,41,72,5.01,CA,1632081477
Arrondissement de Brive-la-Gaillarde,45.25,1.5,57.27,94,100,0.96,FR,1632081478
Russell,32.3502,-85.1999,82.11,74,75,0.0,US,1632081478
Zabaykal'sk,49.6333,117.3167,43.45,53,83,3.83,RU,1632081478
Baena,37.6167,-4.3225,78.91,40,0,2.77,ES,1632081479
Carnarvon,-24.8667,113.6333,62.67,67,0,13.8,AU,1632081479
Lavrentiya,65.5833,-171.0,30.61,68,3,7.07,RU,1632081480
Marabu,4.4148,114.0089,80.74,89,20,2.3,MY,1632081480
Mar del Plata,-38.0023,-57.5575,59.02,94,75,12.66,AR,1632081481
Wanning,18.8003,110.3967,79.97,86,21,1.61,CN,1632081481
Port Alfred,-33.5906,26.891,62.65,79,76,9.51,ZA,1632081481
Victoria Point,-27.5833,153.3,63.09,91,6,8.75,AU,1632081482
Lebu,-37.6167,-73.65,52.81,67,1,17.36,CL,1632081482
Praia da Vitória,38.7333,-27.0667,71.85,83,75,9.93,PT,1632081233
Saldanha,-33.0117,17.9442,59.05,72,91,7.7,ZA,1632081483
Mehamn,71.0357,27.8492,48.38,72,100,14.27,NO,1632081483
Businga,3.3333,20.8833,71.33,98,49,2.26,CD,1632081484
Ribeira Grande,38.5167,-28.7,72.0,68,40,11.5,PT,1632081269
Gambo,4.6482,22.2633,69.46,98,64,1.25,CF,1632081484
Asău,46.4333,26.4,49.95,95,59,2.71,RO,1632081485
Sorong,-0.8833,131.25,77.25,88,100,7.0,ID,1632081485
Laas,46.6166,10.7002,55.02,99,100,5.23,IT,1632081485
Mayumba,-3.432,10.6554,74.8,79,21,7.63,GA,1632081486
Cidreira,-30.1811,-50.2056,67.82,93,77,16.22,BR,1632081229
Itoman,26.1247,127.6694,77.77,78,20,2.3,JP,1632081486
Fairbanks,64.8378,-147.7164,41.09,84,90,4.61,US,1632081332
Oktyabr'skoye,43.0645,44.7417,53.74,94,96,4.47,RU,1632081487
Yangambi,0.8102,24.4336,72.86,80,97,2.89,CD,1632081488
Hilo,19.7297,-155.09,82.27,88,42,5.01,US,1632081241
Tyrma,50.0833,132.1667,36.54,93,0,1.21,RU,1632081488
Pevek,69.7008,170.3133,31.05,75,96,8.97,RU,1632081488
Maralal,1.0968,36.698,64.13,67,29,5.14,KE,1632081489
Qui Nhon,13.7667,109.2333,76.93,91,100,5.59,VN,1632081489
Emba,48.8264,58.1442,44.74,40,31,6.26,KZ,1632081490
Pringsewu,-5.3582,104.9744,74.5,94,100,3.74,ID,1632081490
Mackenzie,55.2999,-123.1698,48.42,81,90,11.5,CA,1632081490
Darnah,32.767,22.6367,79.41,61,0,6.71,LY,1632081491
Roanoke Rapids,36.4615,-77.6542,89.46,66,1,0.0,US,1632081491
Faanui,-16.4833,-151.75,77.63,76,81,19.86,PF,1632081492
Ulaangom,49.9811,92.0667,53.87,27,0,3.44,MN,1632081492
Najrān,17.4924,44.1277,81.25,15,1,3.74,SA,1632081493
East Moline,41.5009,-90.4443,90.3,48,6,11.79,US,1632081493
Longyearbyen,78.2186,15.6401,39.04,93,40,5.75,SJ,1632081493
Rio Grande,-32.035,-52.0986,68.11,92,100,7.9,BR,1632081494
Luleå,65.5842,22.1547,44.67,87,0,6.91,SE,1632081494
Ancud,-41.8697,-73.8203,53.13,71,47,7.43,CL,1632081495
Kachīry,53.0675,76.1036,40.06,64,55,16.2,KZ,1632081495
Castro,-24.7911,-50.0119,72.72,78,25,4.7,BR,1632081496
Deputatsky,69.3,139.9,15.24,96,99,6.38,RU,1632081232
Spa,50.4837,5.8667,58.33,94,94,4.72,BE,1632081496
Saint-Pierre,-21.3393,55.4781,65.88,71,40,8.05,RE,1632081497
Manta,-0.95,-80.7333,82.18,65,20,11.5,EC,1632081497
East London,-33.0153,27.9116,63.19,80,22,16.22,ZA,1632081405
Teguise,29.0605,-13.564,71.82,60,20,11.5,ES,1632081497
Sioux Lookout,50.1001,-91.917,80.67,57,75,16.11,CA,1632081498
Plácido de Castro,-10.3353,-67.1856,95.31,36,76,4.79,BR,1632081498
Port Hardy,50.6996,-127.4199,55.58,94,75,13.8,CA,1632081499
Skibbereen,51.55,-9.2667,57.0,86,45,8.61,IE,1632081499
Luwuk,-0.9516,122.7875,75.9,86,96,3.4,ID,1632081500
Flinders,-34.5833,150.8552,59.05,76,0,1.01,AU,1632081500
Qaanaaq,77.484,-69.3632,17.15,90,94,5.55,GL,1632081500
Coyhaique,-45.5752,-72.0662,53.55,43,40,8.05,CL,1632081501
Kutum,14.2,24.6667,81.27,34,38,8.12,SD,1632081501
Kasongo,-4.45,26.6667,72.43,77,79,3.56,CD,1632081502
Walvis Bay,-22.9575,14.5053,57.09,76,2,9.22,NA,1632081502
Batemans Bay,-35.7167,150.1833,56.19,53,0,7.49,AU,1632081502
Ahipara,-35.1667,173.1667,57.16,86,24,7.27,NZ,1632081503
Bad Doberan,54.1071,11.9005,55.02,79,99,1.01,DE,1632081503
Itamarandiba,-17.8572,-42.8589,86.27,27,67,7.29,BR,1632081413
Alta Floresta,-9.8756,-56.0861,94.82,43,40,2.3,BR,1632081388
Pangnirtung,66.1451,-65.7125,37.4,70,75,13.8,CA,1632081428
Pocatello,42.8713,-112.4455,49.71,85,100,11.99,US,1632081370
Tsaitien,30.5833,114.0333,64.53,91,100,2.15,CN,1632081504
Moose Factory,51.2585,-80.6094,73.4,40,40,13.8,CA,1632081505
Katsuura,35.1333,140.3,69.91,79,80,14.97,JP,1632081505
Abu Dhabi,24.4667,54.3667,93.22,62,0,6.91,AE,1632081498
Mayo,38.8876,-76.5119,84.07,57,40,1.99,US,1632081506
Świnoujście,53.9105,14.2471,56.48,68,91,16.89,PL,1632081506
Maracaçumé,-2.0428,-45.9592,85.68,59,44,6.85,BR,1632081506
Leningradskiy,69.3833,178.4167,26.82,86,87,22.06,RU,1632081507
Srednekolymsk,67.45,153.6833,27.97,65,100,18.32,RU,1632081507
George Town,5.4112,100.3354,78.73,92,40,11.5,MY,1632081508
Saint George,37.1041,-113.5841,94.62,23,0,1.01,US,1632081423
Vaitape,-16.5167,-151.75,77.74,76,82,20.02,PF,1632081508
Sveio,59.5419,5.3518,56.53,69,100,10.27,NO,1632081509
Oranjestad,12.524,-70.027,89.55,58,20,12.66,AW,1632081509
Mahébourg,-20.4081,57.7,70.09,56,40,10.36,MU,1632081313
Vardø,70.3705,31.1107,44.8,70,0,11.5,NO,1632081510
Yabēlo,4.8833,38.0833,66.34,63,78,2.55,ET,1632081510
Sohag,26.557,31.6948,88.09,20,3,6.71,EG,1632081511
Yerbogachën,61.2767,108.0108,39.65,97,97,2.95,RU,1632081511
Codrington,-38.2667,141.9667,46.09,80,44,20.33,AU,1632081340
Birin,26.8865,88.0718,64.11,93,63,2.13,NP,1632081512
Galanta,48.19,17.7275,53.98,66,0,9.75,SK,1632081512
Nālūt,30.3333,10.85,85.96,15,0,9.17,LY,1632081513
Ponta Delgada,37.7333,-25.6667,70.52,60,75,8.05,PT,1632081513
Ilhéus,-14.7889,-39.0494,82.2,65,0,9.22,BR,1632081468
Songjianghe,42.1859,127.479,56.71,74,100,2.08,CN,1632081514
Xingcheng,40.6167,120.7167,63.66,94,100,20.0,CN,1632081514
Karratha,-20.7377,116.8463,74.79,37,0,7.65,AU,1632081515
Balaipungut,1.05,101.2833,73.08,97,100,2.84,ID,1632081515
Manzhouli,49.6,117.4333,43.12,57,85,3.85,CN,1632081515
Løgstør,56.9624,9.2583,52.88,57,100,9.71,DK,1632081516
Zabul Province,32.25,67.25,68.58,12,0,8.5,AF,1632081516
Luanda,-8.8368,13.2343,75.2,60,75,8.05,AO,1632081240
Uglovoye,44.8215,33.6045,65.41,77,0,7.81,UA,1632081517
Grand Gaube,-20.0064,57.6608,70.2,68,99,1.99,MU,1632081517
Nioro,13.35,-15.75,80.38,83,100,3.44,GM,1632081372
Deniliquin,-35.5333,144.9667,52.0,73,81,8.12,AU,1632081518
George Town,5.4112,100.3354,78.73,92,40,11.5,MY,1632081518
Saint-Philippe,-21.3585,55.7679,65.79,68,9,7.2,RE,1632081519
Palu,-0.8917,119.8707,74.93,95,96,2.01,ID,1632081519
Talnakh,69.4865,88.3972,37.67,96,100,2.44,RU,1632081519
Sangar,63.9242,127.4739,31.19,92,28,7.96,RU,1632081520
Bachaquero,9.9694,-71.1494,87.89,65,75,6.6,VE,1632081520
Kavaratti,10.5669,72.642,81.54,80,100,12.08,IN,1632081521
Pandan,14.0453,124.1694,79.68,87,100,5.21,PH,1632081521
Gulf Gate Estates,27.2517,-82.5147,90.19,59,100,8.01,US,1632081521
Rawson,-43.3002,-65.1023,57.4,41,81,11.61,AR,1632081522
Carlyle,38.6103,-89.3726,88.27,63,100,5.01,US,1632081522
Saint-Augustin,51.226,-58.6502,59.77,37,2,12.21,CA,1632081523
Lagos,6.5833,3.75,84.52,88,68,4.59,NG,1632081523
Dekar,-21.5333,21.9333,73.44,31,2,6.98,BW,1632081523
Ladário,-19.0047,-57.6017,106.09,18,6,14.97,BR,1632081524
Souillac,-20.5167,57.5167,70.18,56,40,10.36,MU,1632081524
Bandarbeyla,9.4942,50.8122,79.23,77,77,25.17,SO,1632081525
Novoseleznëvo,55.6821,69.2056,35.19,96,100,13.94,RU,1632081525
Gorontalo,0.5412,123.0595,73.63,93,66,1.97,ID,1632081525
Ayan,56.45,138.1667,44.1,59,1,13.0,RU,1632081526
Samarai,-10.6167,150.6667,78.44,88,100,15.08,PG,1632081526
Sabang,5.8933,95.3214,79.36,81,100,23.02,ID,1632081526
Provideniya,64.3833,-173.3,32.11,64,40,8.95,RU,1632081527
Half Moon Bay,37.4636,-122.4286,80.06,69,40,1.99,US,1632081527
Chunoyar,57.4467,97.3217,51.39,93,100,1.59,RU,1632081528
São Filipe,14.8961,-24.4956,80.49,80,95,10.89,CV,1632081528
Daru,-9.0763,143.2092,76.71,91,98,17.76,PG,1632081528
Bambous Virieux,-20.3428,57.7575,70.05,56,40,10.36,MU,1632081529
Tarakan,3.3,117.6333,76.5,94,40,3.44,ID,1632081529
Tarko-Sale,64.9225,77.785,35.29,91,22,8.21,RU,1632081448
Broome,42.2506,-75.833,74.66,47,0,1.99,US,1632081530
Acapulco de Juárez,16.8634,-99.8901,85.71,66,62,4.63,MX,1632081530
Airai,-8.9266,125.4092,56.84,68,43,3.94,TL,1632081238
Kunya,12.2233,8.5325,77.16,78,20,3.44,NG,1632081531
Maceió,-9.6658,-35.7353,81.84,69,0,10.36,BR,1632081531
Serebryanyy Bor,56.8,124.8,33.64,84,90,2.06,RU,1632081531
Tarnos,43.5417,-1.4628,64.81,88,40,3.44,FR,1632081396
Taltal,-25.4,-70.4833,62.98,70,17,10.38,CL,1632081532
Navalmoral de la Mata,39.8916,-5.5406,68.74,38,4,1.21,ES,1632081532
Jiexiu,37.0244,111.9125,57.83,89,90,3.94,CN,1632081533
Kodinsk,58.6881,99.1844,49.05,75,100,4.12,RU,1632081533
Tema,5.667,-0.0166,79.21,83,20,12.66,GH,1632081534
Horodnytsya,50.807,27.3168,42.96,95,100,9.4,UA,1632081534
Nome,64.5011,-165.4064,36.16,83,29,10.49,US,1632081535
Gengenbach,48.4,8.0167,59.63,93,100,4.92,DE,1632081535
Morondava,-20.2833,44.2833,71.46,57,1,13.35,MG,1632081535
Guisijan,11.0932,122.0461,77.63,82,100,3.51,PH,1632081536
Caledonia,42.8078,-87.9242,90.59,60,0,1.99,US,1632081536
Davenda,53.5556,119.317,39.27,97,17,3.0,RU,1632081537
Bubaque,11.2833,-15.8333,81.27,80,100,9.35,GW,1632081537
Kalmunai,7.4167,81.8167,80.15,84,19,6.73,LK,1632081537
Giyani,-23.3025,30.7187,67.06,41,0,4.47,ZA,1632081538
Xaçmaz,41.4635,48.806,64.27,68,2,3.42,AZ,1632081538
Ust-Nera,64.5667,143.2,31.53,96,100,8.41,RU,1632081539
Marzuq,14.4,46.4667,82.63,33,100,2.84,YE,1632081539
Port-Gentil,-0.7193,8.7815,78.76,78,40,10.36,GA,1632081539
Topchikha,52.8192,83.1185,41.58,71,69,9.13,RU,1632081540
Mpongwe,-13.5091,28.155,72.12,43,0,10.27,ZM,1632081540
Te Anau,-45.4167,167.7167,41.23,95,68,5.77,NZ,1632081281
Henties Bay,-22.116,14.2845,56.86,87,1,7.67,NA,1632081541
Zhongshan,21.3226,110.5829,81.14,84,5,5.57,CN,1632081541
Ostrovnoy,68.0531,39.5131,37.31,78,32,5.99,RU,1632081542
Tautira,-17.7333,-149.15,80.62,69,24,19.71,PF,1632081542
Redcliffe,-27.2307,153.0973,61.9,59,1,0.0,AU,1632081542
Beloha,-25.1667,45.05,60.55,70,0,10.31,MG,1632081543
Harlingen,26.1906,-97.6961,99.32,50,0,7.18,US,1632081543
Linqiong,30.4159,103.4609,73.22,84,0,1.88,CN,1632081544
Thompson,55.7435,-97.8558,60.96,77,90,12.66,CA,1632081544
Chokwé,-24.5333,32.9833,68.74,35,0,5.88,MZ,1632081544
Tuktoyaktuk,69.4541,-133.0374,41.0,60,40,17.27,CA,1632081545
Kumul,42.8,93.45,72.45,20,34,1.81,CN,1632081545
Havøysund,70.9963,24.6622,49.08,77,100,10.22,NO,1632081545
Bismil,37.8486,40.6658,80.33,25,0,4.76,TR,1632081546
Santa Isabel Rio Negro,-0.4139,-65.0192,84.42,68,99,0.63,BR,1632081546
The Valley,18.217,-63.0578,81.82,94,75,9.22,AI,1632081547
Itarema,-2.9248,-39.9167,80.38,67,95,17.2,BR,1632081547
Pochutla,15.7432,-96.4661,90.82,60,80,7.07,MX,1632081547
Altay,47.8667,88.1167,59.13,41,73,1.95,CN,1632081548
Iralaya,15.0,-83.2333,87.89,66,16,8.88,HN,1632081548
Sobolevo,54.4299,31.8996,42.62,94,100,15.17,RU,1632081548
Tarata,-17.6167,-66.0167,78.22,35,36,17.29,BO,1632081549
Longonjo,-12.9067,15.2533,72.37,60,89,2.46,AO,1632081549
La Ronge,55.1001,-105.2842,59.22,54,75,11.5,CA,1632081550
Fort Nelson,58.8053,-122.7002,51.39,66,75,3.44,CA,1632081550
Lata,40.1629,-8.3327,64.08,88,0,3.33,PT,1632081550
Strezhevoy,60.7333,77.5889,37.38,92,100,5.91,RU,1632081551
High Level,58.5169,-117.136,50.11,81,75,9.22,CA,1632081341
Río Gallegos,-51.6226,-69.2181,55.45,35,75,13.8,AR,1632081551
Igrim,63.1906,64.4162,34.41,97,100,13.13,RU,1632081552
Varberg,57.1056,12.2508,51.06,84,100,11.48,SE,1632081552
Chivay,-15.6383,-71.6011,55.09,56,75,8.23,PE,1632081553
Magadan,59.5667,150.8,44.78,85,99,8.43,RU,1632081553
Hualmay,-11.0964,-77.6139,65.66,68,13,13.31,PE,1632081554
Hambantota,6.1241,81.1185,79.7,86,43,12.41,LK,1632081267
Nanortalik,60.1432,-45.2371,38.12,85,51,11.81,GL,1632081407
Mastic,40.802,-72.8409,79.92,55,15,4.0,US,1632081555
Pagudpud,18.5616,120.7868,79.9,87,90,4.38,PH,1632081555
Khovd,48.0056,91.6419,57.74,36,14,7.67,MN,1632081555
Iqaluit,63.7506,-68.5145,37.13,70,40,17.27,CA,1632081556
Vila,42.0304,-8.1588,57.33,75,78,4.38,PT,1632081556
Bethel,41.3712,-73.414,77.58,54,12,4.36,US,1632081557
Vilcún,-38.65,-72.2333,52.54,47,9,6.62,CL,1632081557
Houston,29.7633,-95.3633,94.41,65,90,5.01,US,1632080878
Inhambane,-23.865,35.3833,66.9,67,1,11.01,MZ,1632081558
Maykopskoye,45.3936,40.7658,63.72,87,100,5.3,RU,1632081558
Morganton,35.7454,-81.6848,88.43,64,40,1.01,US,1632081558
Kindu,-2.95,25.95,70.77,96,100,2.64,CD,1632081559
La Roda,39.2167,-2.15,68.9,23,2,4.65,ES,1632081559
Victor Harbor,-35.5667,138.6167,53.69,83,69,18.9,AU,1632081559
Togur,58.3631,82.8265,36.81,97,100,7.65,RU,1632081560
Talcahuano,-36.7167,-73.1167,58.68,55,20,18.41,CL,1632081560
Terråk,65.087,12.3715,51.67,70,52,11.25,NO,1632081561
Mil'kovo,54.7167,158.6167,47.55,85,100,2.3,RU,1632081561
Puerto Escondido,15.85,-97.0667,85.87,69,38,6.38,MX,1632081561
Vila Velha,-20.3297,-40.2925,76.95,78,20,8.05,BR,1632081562
Kashary,49.04,41.0056,59.54,92,100,8.5,RU,1632081562
Grindavik,63.8424,-22.4338,48.67,81,75,17.27,IS,1632081563
San Cristobal,7.7669,-72.225,84.38,57,75,5.14,VE,1632081563
Sinnamary,5.3833,-52.95,83.64,71,91,10.42,GF,1632081564
Lensk,60.7253,114.9278,43.7,80,100,3.51,RU,1632081564
Zhuhai,22.2769,113.5678,86.05,89,40,2.3,CN,1632081564
Myhove,48.1575,25.379,45.95,94,98,3.85,UA,1632081565
Freeport,40.6576,-73.5832,80.29,44,7,4.0,US,1632081459
Narsaq,60.9167,-46.05,40.24,81,69,3.71,GL,1632081565
Singleton,-32.5667,151.1833,52.45,73,0,5.28,AU,1632081566
Dali,25.7,100.1833,62.08,92,99,2.53,CN,1632081566
Šakiai,54.9547,23.0358,44.85,82,100,13.04,LT,1632081567
Piranshahr,36.701,45.1413,61.9,33,0,5.48,IR,1632081567
Ossora,59.2353,163.0719,48.54,89,100,5.14,RU,1632081567
Juneau,58.3019,-134.4197,54.84,88,95,1.99,US,1632081568
Yamada,39.4667,141.95,60.46,76,98,4.65,JP,1632081568
Avera,33.194,-82.5271,85.51,56,100,10.42,US,1632081569
Atar,20.5169,-13.0499,92.62,35,55,11.79,MR,1632081569
Mahon,39.8885,4.2658,70.36,68,0,6.91,ES,1632081569
Tiksi,71.6872,128.8694,33.93,74,100,19.37,RU,1632081384
Loralai,30.3705,68.598,77.23,40,0,6.31,PK,1632081570
Lethem,3.3803,-59.7968,89.83,52,92,4.41,GY,1632081570
Dingle,10.9995,122.6711,74.84,91,100,2.44,PH,1632081571
Bousso,10.4795,16.7117,74.19,85,100,2.55,TD,1632081571
Mount Isa,-20.7333,139.5,64.17,48,0,4.61,AU,1632081572
‘Ewa Beach,21.3156,-158.0072,79.68,86,90,4.61,US,1632081319
Zverinogolovskoye,54.4586,64.8542,41.11,61,100,16.15,RU,1632081572
Bitam,2.076,11.5007,68.88,98,100,2.44,GA,1632081573
Krk,45.0258,14.5731,66.06,92,97,5.53,HR,1632081573
Karasjok,69.4719,25.5112,41.11,88,100,10.0,NO,1632081573
Linguère,15.3953,-15.1193,91.2,46,60,6.02,SN,1632081574
Gweta,-20.1833,25.2333,74.1,28,3,8.66,BW,1632081574
Vanimo,-2.6741,141.3028,77.05,85,100,3.18,PG,1632081574
Clyde River,70.4692,-68.5914,32.09,53,58,0.74,CA,1632081575
Satuk,41.2263,32.3836,61.23,84,22,3.02,TR,1632081575
Sept-Îles,50.2001,-66.3821,59.52,68,20,8.99,CA,1632081358
Antofagasta,-23.65,-70.4,60.08,71,23,8.7,CL,1632081576
Agadir,30.4202,-9.5982,72.05,78,41,3.98,MA,1632081576
Nishihara,26.1842,127.7558,77.05,83,20,5.75,JP,1632081451
Port Moresby,-9.4431,147.1797,72.82,100,75,5.75,PG,1632081577
Lorengau,-2.0226,147.2712,81.1,78,75,6.51,PG,1632081324
Kontagora,10.3999,5.4695,76.55,83,3,2.59,NG,1632081553
Sambava,-14.2667,50.1667,70.54,88,100,14.85,MG,1632081578
Wajima,37.4,136.9,70.23,71,6,13.6,JP,1632081578
Auki,-8.7676,160.7034,78.1,85,100,5.03,SB,1632081578
Lubbock,33.6001,-101.8338,95.38,31,74,4.0,US,1632081409
Pacific Grove,36.6177,-121.9166,81.57,72,4,1.01,US,1632081579
Brae,60.3964,-1.353,55.31,93,100,11.48,GB,1632081579
Dzaoudzi,-12.7887,45.2699,76.89,78,90,14.97,YT,1632081580
Rovaniemi,66.5,25.7167,42.21,70,90,4.61,FI,1632081580
Adrar,20.5022,-10.0711,95.49,21,4,17.22,MR,1632081580
Batagay-Alyta,67.8006,130.4114,22.68,92,95,3.78,RU,1632081581
Husavik,66.0449,-17.3389,49.91,88,98,5.12,IS,1632081581
Nhulunbuy,-12.2333,136.7667,74.01,73,100,6.91,AU,1632081314
Kurumkan,54.3,110.3,48.45,78,19,3.04,RU,1632081582
Taoudenni,22.6783,-3.9836,101.53,9,0,7.83,ML,1632081582
Berdigestyakh,62.0989,126.6992,28.74,88,17,8.75,RU,1632081582
Malakal,9.5334,31.6605,74.21,85,100,3.15,SS,1632081583
Brooks,50.5834,-111.8851,64.18,45,100,4.61,CA,1632081583
Ankang,32.68,109.0172,61.77,90,77,0.09,CN,1632081584
Saýat,38.7839,63.8803,71.47,17,0,15.28,TM,1632081584
Klaksvík,62.2266,-6.589,50.92,88,89,6.04,FO,1632081585
Aras,42.5617,-2.356,59.41,67,0,0.0,ES,1632081585
Barzas,55.7167,86.3167,43.03,87,40,4.07,RU,1632081585
Petra,30.3222,35.4793,71.53,33,0,4.54,JO,1632081586
Craig,40.5153,-107.5464,73.18,28,93,27.27,US,1632081586
Antalaha,-14.9003,50.2788,69.66,88,100,10.54,MG,1632081586
Berlevåg,70.8578,29.0864,44.55,65,0,20.71,NO,1632081587
Yeppoon,-23.1333,150.7333,56.98,80,0,5.61,AU,1632081587
Egvekinot,66.3167,-179.1667,23.83,63,0,3.0,RU,1632081588
Ondjiva,-17.0667,15.7333,77.85,24,13,6.64,AO,1632081588
Krasnovishersk,60.4078,57.082,35.33,87,98,7.92,RU,1632081588
Ulladulla,-35.35,150.4667,58.87,51,0,8.25,AU,1632081589
Aklavik,68.2191,-135.0107,46.4,36,40,3.44,CA,1632081589
Kim,40.208,70.4688,62.98,19,0,14.58,TJ,1632081590
Kirakira,-10.4544,161.9205,79.32,86,100,11.92,SB,1632081590
São José da Coroa Grande,-8.8978,-35.1478,76.41,74,63,8.79,BR,1632081591
Abashiri,44.0213,144.2697,51.51,82,77,6.49,JP,1632081591
Panabá,21.2833,-88.2667,98.44,36,31,9.95,MX,1632081592
Balkhash,46.844,74.9804,50.81,37,0,12.44,KZ,1632081592
Carmo do Cajuru,-20.1842,-44.7711,93.34,19,73,6.4,BR,1632081593
La Brea,15.8,-85.9667,90.91,58,75,12.66,HN,1632081593
Quatre Cocos,-20.2078,57.7625,69.91,60,80,12.39,MU,1632081594
Geraldton,-28.7667,114.6,57.61,72,0,17.27,AU,1632081594
Mossamedes,-15.1961,12.1522,63.32,80,13,6.91,AO,1632081594
Hurghada,27.2574,33.8129,87.84,30,0,5.75,EG,1632081595
Petropavlovsk-Kamchatskiy,53.0452,158.6483,46.99,100,90,4.47,RU,1632081595
Severo-Yeniseyskiy,60.3725,93.0408,41.5,87,100,4.99,RU,1632081595
Lompoc,34.6391,-120.4579,89.02,63,1,13.0,US,1632081596
Huarmey,-10.0681,-78.1522,66.72,68,6,13.35,PE,1632081596
Riyadh,24.6877,46.7219,87.94,20,0,7.09,SA,1632081506
Matagami,49.7502,-77.6328,68.11,45,1,13.8,CA,1632081597
Angleton,29.1694,-95.4319,93.27,64,34,3.31,US,1632081597
Shirokiy,49.758,129.523,40.82,88,0,4.27,RU,1632081598
Bonnyville,54.2668,-110.735,58.32,58,100,14.5,CA,1632081590
Alofi,-19.0595,-169.9187,76.89,94,0,4.61,NU,1632081598
Ypsilanti,42.2412,-83.613,84.02,58,0,1.01,US,1632081599
Vanavara,60.34,102.2797,42.78,89,100,4.29,RU,1632081599
El Retorno,2.3302,-72.6276,89.87,53,65,1.28,CO,1632081599
Sørland,67.667,12.6934,52.39,73,100,10.51,NO,1632081600
Hofn,64.2539,-15.2082,50.54,80,72,16.67,IS,1632081600
Lagoa,39.05,-27.9833,68.36,66,43,13.44,PT,1632081601
Port Angeles,48.1181,-123.4307,64.72,89,90,0.0,US,1632081432
Willmar,45.1219,-95.0433,89.62,33,1,10.36,US,1632081602
San José de Río Tinto,14.9333,-85.7,92.14,39,93,6.31,HN,1632081602
Laguna,38.421,-121.4238,80.47,44,20,3.0,US,1632081603
Kollam,8.8833,76.6,80.47,90,100,8.01,IN,1632081605
Perth,-31.9333,115.8333,54.09,73,0,21.85,AU,1632081479
Sechura,-5.5569,-80.8222,73.71,61,32,17.38,PE,1632081606
Samarinda,-0.5,117.15,73.17,98,59,2.59,ID,1632081608
Nautla,20.2167,-96.7833,84.16,70,80,6.42,MX,1632081609
Erbil,36.1926,44.0106,80.92,22,0,1.05,IQ,1632081606
Mocuba,-16.8392,36.9856,64.6,65,13,2.37,MZ,1632081610
Baghdad,33.3406,44.4009,82.31,30,0,5.75,IQ,1632081411
Ferme-Neuve,46.7001,-75.4493,66.06,43,0,2.84,CA,1632081611
Oranjemund,-28.55,16.4333,56.35,85,0,4.05,NA,1632081611
Bowling Green,36.9903,-86.4436,75.15,92,100,6.78,US,1632081605
Meulaboh,4.1363,96.1285,73.51,95,100,7.96,ID,1632081612
Morgan City,29.6994,-91.2068,86.04,79,90,6.91,US,1632081613
Maţāy,28.419,30.7792,85.21,28,0,16.49,EG,1632081614
Murgab,37.4966,61.9714,71.35,20,0,8.08,TM,1632081614
San Patricio,28.017,-97.5169,96.89,40,1,6.08,US,1632081615
Dmitriyevka,54.75,55.3333,42.35,76,46,3.89,RU,1632081616
Ambilobe,-13.2,49.05,73.56,81,84,5.44,MG,1632081616
Yar-Sale,66.8333,70.8333,31.41,83,92,21.63,RU,1632081617
Fortuna,40.5982,-124.1573,72.43,64,20,1.01,US,1632081618
Pontianak,-0.0333,109.3333,76.98,94,98,3.44,ID,1632081619
Carballo,43.213,-8.691,61.9,89,56,4.63,ES,1632081619
Paso de los Toros,-32.8167,-56.5167,66.96,89,84,11.43,UY,1632081620
Shimoda,34.6667,138.95,69.37,68,4,14.32,JP,1632081621
Omsukchan,62.5333,155.8,39.34,98,100,4.14,RU,1632081621
Kahului,20.8947,-156.47,85.26,74,100,12.93,US,1632081622
Touros,-5.1989,-35.4608,78.76,70,100,17.92,BR,1632081623
Calamar,10.2511,-74.9146,85.84,71,100,5.17,CO,1632081623
Baykal'sk,51.5058,104.1469,52.18,85,1,1.68,RU,1632081624
Port Hedland,-20.3167,118.5667,66.25,42,5,8.05,AU,1632081482
João Pessoa,-7.115,-34.8631,82.63,65,40,13.8,BR,1632081596
Nador,35.174,-2.9287,71.85,73,0,4.61,MA,1632081625
Logan Lake,50.4998,-120.8025,49.84,59,100,6.06,CA,1632081626
Mtsensk,53.2766,36.5733,48.22,95,100,13.09,RU,1632081627
Banjar,-8.19,114.9675,76.86,88,21,6.89,ID,1632081627
Havre-St-Pierre,50.2334,-63.5986,54.41,63,2,15.68,CA,1632081628
Puerto Madryn,-42.7692,-65.0385,58.57,40,91,9.51,AR,1632081629
Tsiroanomandidy,-18.7667,46.0333,66.11,71,98,4.07,MG,1632081629
Tūkrah,32.5341,20.5791,82.67,40,0,4.65,LY,1632081630
Winneba,5.3511,-0.6231,76.01,91,80,7.34,GH,1632081631
Oriximiná,-1.7656,-55.8661,94.19,40,22,4.27,BR,1632081631
Serenje,-13.2325,30.2352,62.76,62,2,3.8,ZM,1632081632
Artigas,-30.4,-56.4667,76.24,81,100,13.24,UY,1632081386
Yichun,47.7,128.9,37.94,92,100,2.86,CN,1632081633
Okha,53.5739,142.9478,48.51,64,43,17.09,RU,1632081634
Concordia,-31.393,-58.0209,74.28,82,97,9.84,AR,1632081514
Sayyan,15.1718,44.3244,66.56,34,55,4.83,YE,1632081634
Leszno,51.8403,16.5749,53.15,68,89,3.62,PL,1632081635
Hattiesburg,31.3271,-89.2903,84.83,77,40,4.61,US,1632081528
Dawson,31.7735,-84.4466,82.78,79,100,6.35,US,1632081522
Portland,45.5234,-122.6762,67.89,75,75,1.99,US,1632081298
Moussoro,13.6408,16.4901,91.45,43,93,14.03,TD,1632081628
Jämsä,61.8642,25.19,43.52,67,100,7.18,FI,1632081636
Chitral,35.8462,71.7858,72.97,73,29,2.24,PK,1632081637
La Santisima Trinidad,-14.8333,-64.9,89.58,62,75,16.11,BO,1632081474
Santa Rosa,14.3122,121.1114,78.1,89,100,3.11,PH,1632081638
Necochea,-38.5473,-58.7368,61.68,78,51,11.16,AR,1632081639
Lavumisa,-27.31,31.892,61.68,72,0,4.54,SZ,1632081640
Muravlenko,63.7898,74.523,37.49,91,100,9.57,RU,1632081640
Shwebo,22.5667,95.7,75.04,97,100,3.87,MM,1632081641
Kachug,53.9606,105.8817,47.57,90,11,2.01,RU,1632081642
Acajutla,13.5928,-89.8275,84.97,71,100,6.89,SV,1632081642
Grande Prairie,55.1667,-118.8027,51.98,66,75,14.97,CA,1632081547
Qeshm,26.9581,56.2719,89.47,77,53,10.63,IR,1632081643
Gravdal,68.1214,13.5031,49.68,69,99,9.06,NO,1632081644
Santa Cruz de la Sierra,-17.8,-63.1667,97.0,26,74,15.12,BO,1632081646
Bariloche,-41.1456,-71.3082,51.55,35,20,19.57,AR,1632081383
Solnechnyy,50.7214,136.6319,45.41,55,0,8.79,RU,1632081647
Kropotkin,45.4375,40.5756,64.22,87,100,6.26,RU,1632081648
Verkhoyansk,67.5447,133.385,25.57,95,100,3.04,RU,1632081648
Tazovsky,67.4667,78.7,35.53,97,100,17.2,RU,1632081649
Biltine,14.5333,20.9167,90.55,32,94,4.5,TD,1632081650
Craigieburn,-37.6,144.95,51.12,71,40,17.27,AU,1632081651
Boddam,57.4667,-1.7833,57.58,93,49,7.99,GB,1632081651
Kuril'sk,45.2333,147.8833,52.75,80,86,5.88,RU,1632081652
Cockburn Town,21.4612,-71.1419,82.6,75,48,15.1,TC,1632081652
Hamilton,39.1834,-84.5333,90.21,48,100,1.99,US,1632081424
Nísia Floresta,-6.0911,-35.2086,78.31,68,95,14.05,BR,1632081653
Matara,5.9485,80.5353,78.58,90,57,7.85,LK,1632081654
Terbuny,52.1389,38.2789,53.44,94,100,13.8,RU,1632081655
Malacca,2.196,102.2405,76.71,88,100,6.26,MY,1632081656
Kudahuvadhoo,2.6708,72.8944,82.09,77,85,8.37,MV,1632081656
Srandakan,-7.9386,110.2506,75.43,88,75,8.1,ID,1632081657
Gigmoto,13.7796,124.39,81.19,83,100,4.18,PH,1632081658
Rome,43.2128,-75.4557,74.39,48,4,4.45,US,1632081597
Lentekhi,42.7856,42.7261,59.52,85,100,3.98,GE,1632081659
Ribas do Rio Pardo,-20.4431,-53.7592,103.96,11,16,11.01,BR,1632081659
Klyuchevskiy,53.5317,119.4519,37.83,97,11,3.13,RU,1632081660
Bathsheba,13.2167,-59.5167,84.22,63,57,2.01,BB,1632081661
Nkoteng,4.5167,12.0333,69.39,97,71,1.68,CM,1632081661
Yambio,4.5721,28.3955,69.73,95,69,1.45,SS,1632081662
Punta de Piedra,7.6176,-71.4916,85.73,68,48,2.46,VE,1632081662
Micheweni,-4.9667,39.8333,76.44,80,1,14.61,TZ,1632081663
Ixtapa,20.7,-105.2,78.71,92,100,3.04,MX,1632081663
Guisa,20.255,-76.5386,87.75,51,72,6.78,CU,1632081664
Hay River,60.8156,-115.7999,46.18,89,100,2.39,CA,1632081664
Port-Cartier,50.0334,-66.8654,56.75,55,13,5.86,CA,1632081665
Miraflores,19.2167,-98.8083,63.48,75,98,2.62,MX,1632081665
Neiafu,-18.65,-173.9833,76.3,78,54,10.47,TO,1632081666
Mundargi,15.2167,75.9,74.35,82,100,9.1,IN,1632081666
Manjakandriana,-18.9167,47.8,50.34,96,100,4.54,MG,1632081666
Martinsville,36.6915,-79.8725,91.06,48,75,4.61,US,1632081667
Kupang,-10.1667,123.5833,76.55,78,59,11.14,ID,1632081667
Kenora,49.8167,-94.4337,76.98,45,52,15.57,CA,1632081668
Lisala,2.15,21.5167,71.29,96,65,2.48,CD,1632081668
Buala,-8.145,159.5921,79.75,85,100,8.84,SB,1632081668
Belmonte,-15.8631,-38.8828,77.5,64,47,8.08,BR,1632081669
Newport,51.5877,-2.9984,59.86,81,8,8.03,GB,1632081632
Płock,52.5468,19.7064,48.16,77,85,6.35,PL,1632081669
Ranong,9.9658,98.6348,77.74,90,100,4.07,TH,1632081670
La Palma,33.8464,-118.0467,90.01,62,1,5.01,US,1632081670
Mujiayingzi,42.1167,118.7833,54.32,97,100,10.47,CN,1632081671
Bucerías,20.75,-105.3333,79.27,86,100,5.08,MX,1632081513
Nurota,40.5614,65.6886,68.09,28,5,13.51,UZ,1632081671
Moerai,-22.4333,-151.3333,74.25,70,84,14.99,PF,1632081671
Menongue,-14.6585,17.691,68.29,54,33,5.35,AO,1632081672
Del Rio,29.3627,-100.8968,98.42,27,0,6.22,US,1632081670
Ola,59.5833,151.2833,45.0,84,100,7.43,RU,1632081672
Kirovsk,48.6375,38.6428,58.08,95,100,6.91,UA,1632081673
Pombas,17.1503,-25.0201,77.63,87,100,10.69,CV,1632081673
Marystown,47.1666,-55.1483,58.98,95,100,19.04,CA,1632081674
Leer,8.3018,30.1418,74.48,78,62,2.17,SS,1632081674
Berekum,7.4534,-2.584,72.34,94,59,2.39,GH,1632081674
Ol'ga,43.7444,135.2892,53.04,76,19,5.75,RU,1632081675
Toamasina,-18.1667,49.3833,67.87,82,100,6.93,MG,1632081675
Thinadhoo,0.5333,72.9333,82.65,75,83,4.34,MV,1632081676
Margate,51.3813,1.3862,64.31,90,100,2.95,GB,1632081676
