City,Lat,Lng,Max Temp,Humidity,Cloudiness,Wind Speed,Country,Date
Castro,-24.7911,-50.0119,58.35,99,98,4.0,BR,1631914710
Butaritari,3.0707,172.7902,81.41,76,67,12.77,KI,1631914711
Albany,42.6001,-73.9662,75.85,82,68,5.28,US,1631914711
Quatre Cocos,-20.2078,57.7625,72.09,86,12,6.69,MU,1631914711
Port Alfred,-33.5906,26.891,58.15,55,83,3.4,ZA,1631914712
San Policarpo,12.1791,125.5072,77.97,87,33,2.55,PH,1631914652
Broome,42.2506,-75.833,77.54,72,86,4.74,US,1631914712
Puerto Ayora,-0.7393,-90.3518,70.56,89,97,5.99,EC,1631914713
Cidreira,-30.1811,-50.2056,62.33,94,100,16.71,BR,1631914713
Mwinilunga,-11.7358,24.4293,68.52,40,4,2.77,ZM,1631914714
Cherskiy,68.75,161.3,40.78,79,100,6.55,RU,1631914714
Martapura,-3.4167,114.85,73.74,96,95,1.97,ID,1631914714
Cayenne,4.9333,-52.3333,83.08,80,20,4.0,GF,1631914715
Ogaminana,7.5946,6.2248,74.82,94,96,2.64,NG,1631914715
Upernavik,72.7868,-56.1549,30.29,83,100,12.15,GL,1631914716
Heraclea,37.5133,34.0467,58.98,66,0,2.1,TR,1631914716
Hasaki,35.7333,140.8333,77.27,79,100,24.74,JP,1631914716
Sunnyside,46.3237,-120.0087,76.64,17,100,3.36,US,1631914717
Yellowknife,62.456,-114.3525,48.74,52,49,11.81,CA,1631914717
Mingyue,43.1069,128.9217,51.6,92,0,2.19,CN,1631914718
Isabela,6.7085,121.9711,76.51,85,95,2.8,PH,1631914718
Honolulu,21.3069,-157.8583,83.97,68,93,3.0,US,1631914718
Saint Paul Harbor,57.79,-152.4072,52.99,74,31,8.75,US,1631914430
Severo-Kuril'sk,50.6789,156.125,51.96,67,20,7.23,RU,1631914719
Lahaina,20.8783,-156.6825,81.95,64,100,12.82,US,1631914719
Taoudenni,22.6783,-3.9836,97.25,23,91,13.09,ML,1631914475
Chapais,49.7834,-74.8492,69.8,51,50,17.07,CA,1631914720
Mount Isa,-20.7333,139.5,73.09,25,5,9.01,AU,1631914720
Thompson,55.7435,-97.8558,50.36,50,100,6.93,CA,1631914721
Kawalu,-7.3817,108.2082,70.41,97,64,1.32,ID,1631914721
Geraldton,-28.7667,114.6,51.6,73,0,8.25,AU,1631914721
Ushuaia,-54.8,-68.3,37.83,83,100,1.1,AR,1631914503
Kaeo,-35.1,173.7833,60.33,66,0,8.1,NZ,1631914722
Bredasdorp,-34.5322,20.0403,54.28,84,0,10.31,ZA,1631914722
Leningradskiy,69.3833,178.4167,31.78,96,100,1.54,RU,1631914723
Hermanus,-34.4187,19.2345,54.81,75,0,20.31,ZA,1631914723
Egvekinot,66.3167,-179.1667,32.86,65,100,2.1,RU,1631914486
Port Macquarie,-31.4333,152.9167,62.04,68,58,10.92,AU,1631914724
Khartoum,15.5518,32.5324,84.02,66,34,16.91,SD,1631914640
Rikitea,-23.1203,-134.9692,71.94,74,60,11.05,PF,1631914724
Agüimes,27.9054,-15.4461,72.66,81,36,11.23,ES,1631914725
Vieste,41.8825,16.175,76.06,69,93,5.66,IT,1631914725
Lüderitz,-26.6481,15.1594,56.89,74,0,12.75,NA,1631914725
Barbastro,42.0356,0.1269,73.78,40,16,3.24,ES,1631914726
Alenquer,-1.9417,-54.7383,79.92,71,59,2.13,BR,1631914726
Busselton,-33.65,115.3333,56.05,89,99,14.34,AU,1631914727
Maltahöhe,-24.8333,16.9833,59.59,24,1,5.55,NA,1631914727
New Norfolk,-42.7826,147.0587,52.92,86,71,1.01,AU,1631914728
Hilo,19.7297,-155.09,83.28,87,78,3.0,US,1631914598
Araceli,10.5529,119.9913,79.61,80,100,5.21,PH,1631914728
Aklavik,68.2191,-135.0107,44.04,78,96,11.81,CA,1631914729
Tilichiki,60.4667,166.1,48.47,73,100,4.36,RU,1631914729
Tura,25.5198,90.2201,72.14,96,100,3.47,IN,1631914729
Alofi,-19.0595,-169.9187,78.19,81,13,18.23,NU,1631914730
Grand Gaube,-20.0064,57.6608,72.37,84,34,1.99,MU,1631914730
Tasiilaq,65.6145,-37.6368,28.81,62,100,1.83,GL,1631914731
Klaksvík,62.2266,-6.589,53.19,85,92,14.16,FO,1631914731
Hobart,-42.8794,147.3294,53.26,86,68,4.0,AU,1631914434
Kapaa,22.0752,-159.319,81.48,78,100,7.0,US,1631914732
East London,-33.0153,27.9116,58.21,59,66,3.87,ZA,1631914436
Vaini,-21.2,-175.2,76.26,82,3,9.44,TO,1631914732
Rome,43.2128,-75.4557,79.9,75,54,5.03,US,1631914727
Aksarka,66.5606,67.7975,36.57,95,100,30.65,RU,1631914733
Vinstra,61.5952,9.7523,47.16,75,95,5.97,NO,1631914733
Jamestown,42.097,-79.2353,79.84,84,27,4.36,US,1631914733
Byron Bay,-28.65,153.6167,69.06,63,0,12.1,AU,1631914489
Dikson,73.5069,80.5464,33.8,72,42,20.2,RU,1631914734
Saldanha,-33.0117,17.9442,57.97,62,0,17.52,ZA,1631914734
Mongu,-15.2484,23.1274,74.21,22,50,5.61,ZM,1631914735
Atuona,-9.8,-139.0333,77.97,71,16,17.09,PF,1631914735
Porto Velho,-8.7619,-63.9039,88.63,43,76,1.9,BR,1631914736
Sioux Lookout,50.1001,-91.917,54.19,56,83,11.74,CA,1631914736
Båtsfjord,70.6345,29.7185,40.24,81,99,12.48,NO,1631914736
Hobyo,5.3505,48.5268,77.74,83,82,25.1,SO,1631914737
Tomatlán,19.9333,-105.25,84.81,74,100,7.11,MX,1631914737
Xining,36.6167,101.7667,48.76,83,100,4.94,CN,1631914738
Avarua,-21.2078,-159.775,75.06,70,26,17.85,CK,1631914738
Nerchinsk,51.9833,116.5833,38.89,63,84,2.57,RU,1631914739
Hambantota,6.1241,81.1185,79.3,85,91,12.03,LK,1631914632
Clyde River,70.4692,-68.5914,30.69,69,87,0.56,CA,1631914688
Jalu,29.0331,21.5482,80.83,28,0,7.87,LY,1631914739
Arraial do Cabo,-22.9661,-42.0278,69.28,89,99,16.26,BR,1631914740
Halifax,44.6453,-63.5724,65.68,91,95,1.99,CA,1631914540
Nishifukuma,33.7667,130.4667,73.08,88,100,13.65,JP,1631914741
Ribeira Grande,38.5167,-28.7,70.34,78,96,6.51,PT,1631914741
Cabo San Lucas,22.8909,-109.9124,91.81,69,41,8.01,MX,1631914641
Guerrero Negro,27.9769,-114.0611,73.69,67,43,18.1,MX,1631914442
Port Hedland,-20.3167,118.5667,70.45,39,0,16.35,AU,1631914742
Poum,-20.2333,164.0167,70.05,59,4,16.71,NC,1631914742
Torbay,47.6666,-52.7314,61.75,71,1,6.69,CA,1631914743
Necochea,-38.5473,-58.7368,66.04,76,1,10.42,AR,1631914743
Khatanga,71.9667,102.5,26.56,93,13,8.68,RU,1631914743
Saint-Philippe,-21.3585,55.7679,68.22,76,4,5.08,RE,1631914744
Melo,-32.3667,-54.1833,57.51,93,78,8.32,UY,1631914744
Province of Mantua,45.1667,10.7833,70.34,85,41,3.0,IT,1631914745
Yerbogachën,61.2767,108.0108,35.53,75,100,2.39,RU,1631914745
San Quintín,30.4833,-115.95,73.29,63,8,14.81,MX,1631914746
Mahibadhoo,3.7833,72.9667,82.36,76,99,9.91,MV,1631914746
Katobu,-4.9408,122.5276,72.66,89,89,3.49,ID,1631914746
Salinas,36.6777,-121.6555,82.87,67,0,9.17,US,1631914722
Mataura,-46.1927,168.8643,41.49,59,13,3.42,NZ,1631914747
Ust-Maya,60.4167,134.5333,39.65,94,100,3.83,RU,1631914748
Polunochnoye,60.8697,60.4153,31.41,94,49,4.25,RU,1631914748
Itoman,26.1247,127.6694,80.28,79,7,4.88,JP,1631914749
Trat,12.5,102.5,75.16,94,95,1.97,TH,1631914749
Nikolskoye,59.7035,30.7861,45.01,64,77,3.4,RU,1631914749
Tuktoyaktuk,69.4541,-133.0374,47.05,71,99,6.44,CA,1631914750
Vostok,46.4856,135.8833,50.22,81,0,3.65,RU,1631914750
Nālūt,30.3333,10.85,80.26,19,0,10.56,LY,1631914751
Coachella,33.6803,-116.1739,104.43,18,4,8.99,US,1631914751
George Town,5.4112,100.3354,79.9,88,96,4.7,MY,1631914513
Punta Arenas,-53.15,-70.9167,39.49,82,97,2.35,CL,1631914752
Dothan,31.2232,-85.3905,83.08,87,97,1.01,US,1631914752
Warud,21.4667,78.2667,72.19,95,91,2.91,IN,1631914752
Kavieng,-2.5744,150.7967,82.83,76,44,13.4,PG,1631914753
Ganzhou,28.8184,115.4327,69.69,77,12,3.04,CN,1631914753
Kaitangata,-46.2817,169.8464,45.48,55,13,7.74,NZ,1631914753
Sittwe,20.15,92.9,78.66,90,100,9.08,MM,1631914754
Faanui,-16.4833,-151.75,79.16,73,0,20.76,PF,1631914754
Cape Town,-33.9258,18.4232,56.88,77,0,5.99,ZA,1631914547
San Patricio,28.017,-97.5169,97.02,42,6,6.89,US,1631914755
Rocha,-34.4833,-54.3333,54.0,90,0,8.05,UY,1631914755
Saint George,37.1041,-113.5841,94.62,13,22,3.0,US,1631914756
Lebu,-37.6167,-73.65,52.2,87,98,10.16,CL,1631914756
Sinnamary,5.3833,-52.95,79.92,80,39,6.33,GF,1631914756
Qarqīn,37.4185,66.0436,78.4,12,0,5.75,AF,1631914757
Havelock,34.8791,-76.9013,79.05,94,78,6.62,US,1631914757
Laibin,23.7,109.2667,76.93,93,69,2.59,CN,1631914758
Verkhnyaya Toyma,62.2349,44.9985,38.98,75,100,5.91,RU,1631914758
Sambava,-14.2667,50.1667,67.3,91,60,4.7,MG,1631914758
Pyryatyn,50.2445,32.5107,61.18,81,95,12.59,UA,1631914759
Puerto Nariño,-3.7703,-70.3831,76.89,93,68,1.63,CO,1631914759
Pionerskiy,54.9508,20.2275,51.75,90,100,21.47,RU,1631914760
Mormugao,15.4,73.8,77.43,83,94,2.04,IN,1631914760
Asău,46.4333,26.4,66.76,73,94,5.1,RO,1631914761
Yaan,7.3833,8.5667,74.41,93,98,3.98,NG,1631914761
Hokitika,-42.7167,170.9667,46.67,82,100,6.93,NZ,1631914701
Plettenberg Bay,-34.0527,23.3716,51.89,77,0,7.7,ZA,1631914762
Barrow,71.2906,-156.7887,31.01,88,100,10.6,US,1631914762
Ukiah,39.1502,-123.2078,93.52,29,0,8.1,US,1631914763
Mendota,36.7536,-120.3816,90.72,17,0,2.86,US,1631914486
Shuangcheng,45.35,126.2833,54.43,83,31,5.88,CN,1631914763
Samarai,-10.6167,150.6667,77.83,83,99,19.75,PG,1631914764
Prince Rupert,54.3161,-130.3201,46.76,89,100,9.66,CA,1631914764
Omboué,-1.5746,9.2618,76.32,88,100,8.3,GA,1631914765
Muros,42.7762,-9.0603,64.24,91,2,5.88,ES,1631914765
Stepnyak,52.8339,70.7803,46.36,49,77,14.07,KZ,1631914765
Mar del Plata,-38.0023,-57.5575,57.74,78,0,10.45,AR,1631914510
Porto-Vecchio,41.591,9.2795,68.92,83,18,11.27,FR,1631914766
Zhigansk,66.7697,123.3711,38.71,85,100,13.2,RU,1631914766
São Filipe,14.8961,-24.4956,78.69,78,37,12.46,CV,1631914767
Hurghada,27.2574,33.8129,80.78,44,0,19.22,EG,1631914767
Princeton,25.5384,-80.4089,82.99,59,79,8.28,US,1631914569
Mangualde,40.6043,-7.7612,62.82,80,58,3.78,PT,1631914768
Bambous Virieux,-20.3428,57.7575,72.21,84,13,6.2,MU,1631914768
Nola,40.922,14.5329,77.56,74,92,3.6,IT,1631914769
Olinda,-8.0089,-34.8553,75.92,81,54,14.25,BR,1631914769
Airai,-8.9266,125.4092,57.79,53,99,3.29,TL,1631914769
Margate,51.3813,1.3862,61.88,90,93,7.7,GB,1631914770
Mersing,2.4312,103.8405,77.47,85,60,1.99,MY,1631914770
Wanning,18.8003,110.3967,78.42,86,45,2.53,CN,1631914771
Khorixas,-20.3667,14.9667,62.83,20,0,1.7,NA,1631914771
Port Hardy,50.6996,-127.4199,49.6,94,100,17.52,CA,1631914772
Harrisonburg,38.4496,-78.8689,83.68,66,29,4.5,US,1631914772
Pisco,-13.7,-76.2167,65.01,80,56,4.72,PE,1631914772
Salalah,17.0151,54.0924,79.83,88,71,4.27,OM,1631914773
Mossamedes,-15.1961,12.1522,62.06,88,50,7.34,AO,1631914773
Biasca,46.3597,8.9697,68.31,85,6,5.75,CH,1631914773
Kieta,-6.2167,155.6333,83.25,71,83,4.9,PG,1631914774
Charagua,-19.8,-63.2167,86.43,29,7,16.28,BO,1631914774
Oranjestad,12.524,-70.027,83.25,82,0,24.27,AW,1631914775
Waipawa,-41.4122,175.5153,49.3,76,99,3.33,NZ,1631914775
Bathsheba,13.2167,-59.5167,82.6,66,11,11.32,BB,1631914776
Rincon,32.296,-81.2354,84.13,62,63,7.14,US,1631914776
Bluff,-46.6,168.3333,41.81,68,11,5.1,NZ,1631914777
Kenai,60.5544,-151.2583,56.03,85,70,5.32,US,1631914777
Oberá,-27.4871,-55.1199,64.26,99,100,3.76,AR,1631914778
Batagay-Alyta,67.8006,130.4114,33.28,92,100,9.73,RU,1631914778
Bethel,41.3712,-73.414,74.62,85,47,5.59,US,1631914778
Bengkulu,-3.8004,102.2655,74.93,86,36,4.88,ID,1631914779
Cancún,21.1743,-86.8466,83.16,80,100,9.42,MX,1631914622
Marshall,34.3834,-86.3333,82.58,68,97,3.0,US,1631913990
Souillac,-20.5167,57.5167,72.36,84,36,4.9,MU,1631914779
Iranshahr,27.2025,60.6848,84.65,23,0,1.01,IR,1631914780
Huarmey,-10.0681,-78.1522,66.61,73,34,11.07,PE,1631914780
Shenjiamen,29.9576,122.298,71.55,74,1,2.95,CN,1631914781
São Gonçalo do Amarante,-3.6072,-38.9683,80.13,78,3,10.89,BR,1631914781
Mangan,27.5167,88.5333,74.7,86,100,2.35,IN,1631914782
Nouadhibou,20.931,-17.0347,74.55,73,88,18.03,MR,1631914782
Vila Franca do Campo,37.7167,-25.4333,66.69,79,89,6.2,PT,1631914783
Port Elizabeth,-33.918,25.5701,52.11,69,33,3.42,ZA,1631914702
Ilulissat,69.2167,-51.1,16.68,70,6,5.14,GL,1631914784
Carnarvon,-24.8667,113.6333,58.05,44,0,19.01,AU,1631914784
Bodaybo,57.8506,114.1933,31.59,91,10,1.48,RU,1631914784
Tirumullaivāsal,11.2333,79.8333,81.55,77,86,9.08,IN,1631914785
Ancud,-41.8697,-73.8203,51.42,83,99,10.76,CL,1631914785
Amurzet,47.6967,131.0981,55.06,86,99,10.76,RU,1631914786
Flinders,-34.5833,150.8552,60.8,79,68,5.01,AU,1631914786
Ilhabela,-23.7781,-45.3581,68.95,94,97,10.6,BR,1631914786
Lompoc,34.6391,-120.4579,76.78,61,11,5.99,US,1631914787
Mahébourg,-20.4081,57.7,72.25,84,18,5.86,MU,1631914787
Dingle,10.9995,122.6711,74.98,94,100,3.02,PH,1631914788
Atherton,53.5237,-2.4935,62.89,79,79,4.88,GB,1631914588
Kloulklubed,7.0419,134.2556,81.39,78,99,12.77,PW,1631914788
Saint Anthony,45.0205,-93.218,74.17,36,0,7.0,US,1631914789
Cefalù,38.0386,14.0229,86.54,41,89,5.99,IT,1631914789
Bluefield,37.2698,-81.2223,78.94,62,32,1.01,US,1631914790
Ahipara,-35.1667,173.1667,57.78,57,1,8.72,NZ,1631914790
Manokwari,-0.8667,134.0833,76.33,84,100,2.53,ID,1631914790
Tosagua,-0.7833,-80.25,81.52,68,63,10.87,EC,1631914791
Luganville,-15.5333,167.1667,79.7,80,53,9.8,VU,1631914791
Kudahuvadhoo,2.6708,72.8944,82.36,75,100,7.49,MV,1631914792
Chui,-33.6971,-53.4616,55.94,91,68,7.72,UY,1631914792
Hong Kong,22.2855,114.1577,84.33,83,14,8.41,HK,1631914684
Caucayá,-0.1934,-74.7819,77.09,91,24,2.24,CO,1631914793
Vlasenica,44.1819,18.9406,56.32,98,88,3.6,BA,1631914793
Oruzgan,32.8333,66.0,65.97,9,0,3.47,AF,1631914793
Guatire,10.4762,-66.5427,76.05,93,25,2.53,VE,1631914794
Mahon,39.8885,4.2658,75.31,74,0,9.86,ES,1631914794
Jieshi,22.8134,115.8257,80.85,85,10,9.51,CN,1631914795
Ouagadougou,12.3642,-1.5383,81.1,67,34,5.53,BF,1631914572
Thinadhoo,0.5333,72.9333,82.87,72,99,5.26,MV,1631914795
Narsaq,60.9167,-46.05,39.56,77,5,3.85,GL,1631914797
Port-Gentil,-0.7193,8.7815,77.92,84,100,14.12,GA,1631914797
Touros,-5.1989,-35.4608,77.81,80,83,16.37,BR,1631914798
Chara,56.9064,118.2631,31.95,72,1,3.02,RU,1631914798
Qaanaaq,77.484,-69.3632,10.26,69,7,7.2,GL,1631914798
Horasan,40.0458,42.1728,51.13,83,54,2.37,TR,1631914799
Xinyu,27.8043,114.9334,68.79,84,13,2.66,CN,1631914799
Japura,-0.3167,102.35,72.61,98,54,2.17,ID,1631914800
Payson,40.0444,-111.7321,89.51,10,0,3.0,US,1631914552
Levelland,33.5873,-102.378,94.19,18,0,6.46,US,1631914800
Lorengau,-2.0226,147.2712,83.55,75,72,11.48,PG,1631914801
Piaçabuçu,-10.4056,-36.4344,74.41,76,37,10.54,BR,1631914801
Waingapu,-9.6567,120.2641,76.89,82,59,9.73,ID,1631914801
Riohacha,11.5444,-72.9072,88.47,60,9,14.16,CO,1631914802
Tulun,54.5611,100.5792,41.95,96,8,4.74,RU,1631914803
Avera,33.194,-82.5271,84.9,57,63,6.78,US,1631914804
Tuatapere,-46.1333,167.6833,41.83,61,6,3.65,NZ,1631914804
Sungai Penuh,-2.0833,101.3833,63.73,93,92,3.65,ID,1631914805
Beyneu,45.3167,55.2,60.06,38,10,9.22,KZ,1631914805
Tiksi,71.6872,128.8694,34.43,76,100,15.46,RU,1631914805
Constitución,-35.3333,-72.4167,55.45,75,93,14.0,CL,1631914806
Marrakesh,31.6315,-8.0083,73.53,52,1,10.27,MA,1631914806
Namatanai,-3.6667,152.4333,81.61,76,29,7.25,PG,1631914807
Buala,-8.145,159.5921,82.89,75,77,11.43,SB,1631914807
Brae,60.3964,-1.353,55.17,97,100,20.94,GB,1631914807
Ponta do Sol,32.6667,-17.1,75.0,76,3,2.66,PT,1631914808
Aromashevo,56.8602,68.6375,38.66,89,100,13.71,RU,1631914808
Hazorasp,41.3194,61.0742,67.86,33,0,13.33,UZ,1631914809
Berlevåg,70.8578,29.0864,42.06,77,97,13.82,NO,1631914809
Wattegama,6.7989,81.4808,74.89,93,100,5.61,LK,1631914809
Hūn,29.1268,15.9477,80.13,28,0,7.78,LY,1631914810
Kargil,34.5667,76.1,56.19,50,0,4.12,IN,1631914810
San Jose,37.3394,-121.895,84.88,40,0,4.0,US,1631914669
Hammerfest,70.6634,23.6821,41.83,83,39,8.61,NO,1631914811
Caravelas,-17.7125,-39.2481,70.29,69,0,6.08,BR,1631914811
Santa Isabel Rio Negro,-0.4139,-65.0192,72.86,95,79,2.24,BR,1631914812
Coffs Harbour,-30.3,153.1333,64.13,84,15,12.35,AU,1631914812
Mareeba,-17.0,145.4333,69.44,69,23,10.54,AU,1631914813
Zavyalovo,54.5053,82.4484,48.25,84,100,13.38,RU,1631914813
Castelo Branco,39.8222,-7.4909,65.79,79,30,6.76,PT,1631914813
Vila Velha,-20.3297,-40.2925,73.54,80,9,7.07,BR,1631914814
Comodoro Rivadavia,-45.8667,-67.5,58.12,34,4,15.41,AR,1631914636
Fairbanks,64.8378,-147.7164,54.3,57,12,1.01,US,1631914803
Cuiluan,47.72,128.648,52.16,94,100,5.61,CN,1631914814
Yangi Marg`ilon,40.4272,71.7189,68.34,28,0,2.26,UZ,1631914815
Nuevo Progreso,23.1667,-97.95,89.6,71,93,1.99,MX,1631914815
Bandarbeyla,9.4942,50.8122,77.72,84,73,20.76,SO,1631914816
Sāveh,35.0213,50.3566,76.95,24,0,6.98,IR,1631914816
Miracema do Tocantins,-9.5618,-48.3967,89.89,20,0,2.1,BR,1631914817
Ayacucho,-13.1583,-74.2239,66.4,43,100,8.39,PE,1631914817
Tortosa,40.8125,0.5216,72.07,77,1,5.08,ES,1631914817
Ojinaga,29.5667,-104.4167,100.42,15,2,1.05,MX,1631914818
Sørland,67.667,12.6934,51.64,82,100,13.96,NO,1631914818
Esperance,-33.8667,121.9,49.01,77,11,16.04,AU,1631914818
Janakkala,60.9,24.6,43.48,86,100,4.27,FI,1631914819
Tromsø,69.6496,18.957,43.92,80,69,9.22,NO,1631914819
Richards Bay,-28.783,32.0377,62.02,71,97,13.13,ZA,1631914820
Shingū,33.7333,135.9833,77.92,97,100,14.65,JP,1631914820
Les Cayes,18.2,-73.75,84.2,72,96,9.13,HT,1631914821
Fes,34.0372,-4.9998,74.1,56,0,7.14,MA,1631914821
Celendín,-6.8703,-78.1517,60.12,59,56,4.05,PE,1631914821
Pontianak,-0.0333,109.3333,75.65,92,50,0.43,ID,1631914822
Kumul,42.8,93.45,70.0,35,51,8.5,CN,1631914822
Westport,41.1415,-73.3579,76.15,91,37,7.0,US,1631914823
Atar,20.5169,-13.0499,83.48,53,99,10.56,MR,1631914823
Kruisfontein,-34.0033,24.7314,49.89,86,16,3.27,ZA,1631914824
Natal,-5.795,-35.2094,77.72,78,79,13.42,BR,1631914732
San Cristobal,7.7669,-72.225,78.46,57,11,5.5,VE,1631914824
Meridian,43.6121,-116.3915,86.85,17,57,3.0,US,1631914563
Nanortalik,60.1432,-45.2371,37.94,83,21,19.75,GL,1631914825
Larnaca,34.9167,33.6292,73.87,55,0,10.74,CY,1631914825
Fundong,6.25,10.2667,58.46,91,93,3.02,CM,1631914826
Bezenchuk,52.982,49.4333,41.34,65,99,6.89,RU,1631914826
Road Town,18.4167,-64.6167,83.19,75,22,16.11,VG,1631914748
Korla,41.7597,86.1469,68.04,28,0,5.1,CN,1631914827
Hithadhoo,-0.6,73.0833,82.26,74,100,4.38,MV,1631914827
Nelson Bay,-32.7167,152.15,64.11,74,79,8.48,AU,1631914828
Dehui,44.5333,125.7,54.43,81,4,6.89,CN,1631914828
Aksu,41.1231,80.2644,68.77,36,0,1.68,CN,1631914828
Kuytun,54.3419,101.5036,41.72,95,7,6.55,RU,1631914829
Bolton,53.5833,-2.4333,62.38,82,79,4.72,GB,1631914829
Goderich,43.7501,-81.7165,79.92,73,0,8.95,CA,1631914830
Isangel,-19.55,169.2667,71.64,79,100,18.41,VU,1631914739
Derzhavīnsk,51.1,66.3167,44.2,69,11,8.39,KZ,1631914831
Los Llanos de Aridane,28.6585,-17.9182,69.12,75,9,12.55,ES,1631914831
Quesnel,52.9999,-122.5029,52.2,64,100,10.96,CA,1631914831
Duluth,46.7833,-92.1066,72.28,36,0,5.01,US,1631914686
Longyearbyen,78.2186,15.6401,41.41,88,98,6.73,SJ,1631914832
Panabá,21.2833,-88.2667,94.26,41,98,16.91,MX,1631914833
Kjøllefjord,70.9457,27.3465,43.11,77,98,12.71,NO,1631914833
Coahuayana Viejo,18.7333,-103.6833,84.58,77,79,5.12,MX,1631914833
Tūkrah,32.5341,20.5791,76.44,71,0,7.49,LY,1631914834
Iqaluit,63.7506,-68.5145,35.06,79,100,14.52,CA,1631914546
Bherāmāra,24.0232,88.9925,78.31,91,100,3.8,BD,1631914834
Norman Wells,65.282,-126.8329,53.2,56,100,11.07,CA,1631914835
Ostrovnoy,68.0531,39.5131,42.03,74,100,5.91,RU,1631914835
Yarmouth,41.7057,-70.2286,75.09,90,87,8.99,US,1631914836
Sturgis,41.7992,-85.4192,86.99,2,2,9.78,US,1631914836
Krasnomayskiy,57.6194,34.4099,35.56,85,35,4.92,RU,1631914836
Kavaratti,10.5669,72.642,80.71,81,61,9.17,IN,1631914650
Magadan,59.5667,150.8,47.84,94,100,21.18,RU,1631914837
Vanimo,-2.6741,141.3028,78.49,89,66,6.49,PG,1631914838
Makkah al Mukarramah,21.4267,39.8261,83.97,43,56,4.03,SA,1631914647
Vao,-22.6667,167.4833,67.44,58,1,15.86,NC,1631914746
Meulaboh,4.1363,96.1285,77.13,89,86,1.23,ID,1631914838
Saskylakh,71.9167,114.0833,30.45,91,99,8.84,RU,1631914839
Takahagi,36.7167,140.7167,72.84,89,100,19.1,JP,1631914839
Tela,15.7833,-87.45,85.33,70,19,8.14,HN,1631914840
Hualmay,-11.0964,-77.6139,64.53,74,63,12.33,PE,1631914840
Dhidhdhoo,6.8833,73.1,81.64,78,99,10.16,MV,1631914841
Santiago del Estero,-27.7951,-64.2615,77.29,27,2,5.23,AR,1631914841
Marfino,55.7028,37.3822,40.84,64,14,4.0,RU,1631914842
Udachny,66.4167,112.4,28.47,93,86,6.11,RU,1631914842
Bogorodskoye,56.55,37.8833,35.76,90,13,3.94,RU,1631914842
Provideniya,64.3833,-173.3,41.67,68,100,10.27,RU,1631914843
Gizo Government Station,-8.103,156.8419,82.71,76,73,13.62,SB,1631914843
Tessalit,20.1986,1.0114,93.25,15,4,2.8,ML,1631914844
Umm Hājar,13.2954,19.6966,82.78,60,93,7.49,TD,1631914844
Codrington,-38.2667,141.9667,49.28,76,18,18.25,AU,1631914845
Guarapari,-20.6667,-40.4975,71.62,88,22,6.76,BR,1631914845
Nabire,-3.3667,135.4833,74.53,96,100,3.15,ID,1631914845
Mount Gambier,-37.8333,140.7667,47.48,82,68,16.58,AU,1631914846
Chokurdakh,70.6333,147.9167,31.68,80,100,12.91,RU,1631914846
Kendari,-3.945,122.4989,71.44,93,77,3.02,ID,1631914847
Aswān,24.0934,32.907,80.29,29,2,10.25,EG,1631914847
Kupang,-10.1667,123.5833,74.59,75,3,5.48,ID,1631914848
Itarema,-2.9248,-39.9167,78.67,80,11,16.15,BR,1631914848
Hachinohe,40.5,141.5,65.55,98,100,6.49,JP,1631914848
Markala,13.7021,-6.0659,79.18,61,95,3.85,ML,1631914849
Tambura,5.6,27.4667,70.11,90,100,3.02,SS,1631914849
São Félix do Xingu,-6.6447,-51.995,86.41,35,86,3.4,BR,1631914849
Yumen,40.2833,97.2,65.32,30,0,15.57,CN,1631914850
Kautokeino,69.0125,23.0412,38.16,87,96,15.28,NO,1631914850
Lata,40.1629,-8.3327,67.05,91,77,4.34,PT,1631914851
Santa Ana,33.7456,-117.8678,91.04,58,2,1.99,US,1631914729
Iskateley,67.6803,53.1512,39.67,80,100,15.43,RU,1631914851
Lipin Bor,60.2622,37.9763,36.9,96,25,6.91,RU,1631914852
Sabha,27.0377,14.4283,79.93,22,0,9.6,LY,1631914852
Avilés,43.5547,-5.9248,61.18,89,58,7.7,ES,1631914853
Ayan,56.45,138.1667,47.95,62,5,5.06,RU,1631914853
Ust-Nera,64.5667,143.2,45.91,74,100,4.7,RU,1631914853
Coronado,32.6859,-117.1831,90.19,66,10,7.0,US,1631914750
Bowen,-20.0167,148.2333,72.27,60,3,16.64,AU,1631914854
Batagay,67.6333,134.6333,39.02,95,100,6.24,RU,1631914854
Warwick,41.7001,-71.4162,73.15,91,98,1.01,US,1631914839
Kedrovka,55.5333,86.05,61.2,46,100,13.67,RU,1631914855
Sola,-13.8833,167.55,79.68,78,19,18.75,VU,1631914855
Umm Kaddadah,13.6017,26.6876,85.57,40,71,6.26,SD,1631914856
Taywarah,33.35,64.4167,51.44,13,0,1.77,AF,1631914856
Kirakira,-10.4544,161.9205,82.56,75,97,11.72,SB,1631914856
Miquelon,47.0975,-56.3814,59.25,81,0,9.19,PM,1631914857
Kedrovyy,56.1667,91.8167,48.56,77,52,5.88,RU,1631914857
Umluj,25.0213,37.2685,81.48,69,74,5.95,SA,1631914858
Cheyenne,41.14,-104.8203,69.06,43,6,18.99,US,1631914694
Cam Ranh,11.9214,109.1591,76.98,89,97,3.2,VN,1631914858
Solnechnyy,50.7214,136.6319,52.18,92,96,2.19,RU,1631914858
St. George's,12.0564,-61.7485,81.99,69,64,12.97,GD,1631914859
Northam,51.0333,-4.2167,61.61,89,99,5.99,GB,1631914859
Auce,56.4598,22.9017,44.44,73,95,11.05,LV,1631914860
Northview,43.0456,-85.6006,85.71,47,0,4.0,US,1631914860
Ballina,-28.8667,153.5667,61.79,80,1,10.02,AU,1631914860
Brasiléia,-11.0161,-68.7481,89.47,43,40,5.46,BR,1631914861
Novosil',52.9739,37.0405,44.31,81,100,12.71,RU,1631914862
Talnakh,69.4865,88.3972,36.84,70,16,3.22,RU,1631914862
Jiwani,25.05,61.7417,81.66,85,0,4.61,PK,1631914862
Valdivia,-39.8142,-73.2459,50.49,79,39,3.15,CL,1631914835
Severomuysk,56.1481,113.4267,26.11,69,63,2.95,RU,1631914863
Bilma,18.6853,12.9164,91.62,15,0,9.24,NE,1631914863
Majene,-3.5403,118.9707,76.24,89,83,9.13,ID,1631914864
Nuevitas,21.5453,-77.2644,84.7,72,8,10.31,CU,1631914864
Eslāmshahr,35.5605,51.2346,79.56,28,0,10.8,IR,1631914865
Auki,-8.7676,160.7034,82.44,72,89,6.76,SB,1631914865
Gogrial,8.5332,28.1004,70.47,95,99,3.69,SS,1631914865
Belmonte,-15.8631,-38.8828,70.84,70,2,7.74,BR,1631914866
Fitii,-16.7333,-151.0333,78.12,74,2,21.05,PF,1631914866
Kerrville,30.0474,-99.1403,95.9,44,29,4.0,US,1631914867
Luanda,-8.8368,13.2343,70.88,82,12,9.13,AO,1631914828
Beringovskiy,63.05,179.3167,44.69,51,27,7.83,RU,1631914868
Alice Springs,-23.7,133.8833,63.55,63,99,20.24,AU,1631914868
Chicama,-7.8447,-79.1469,69.12,67,28,9.15,PE,1631914868
Nemuro,43.3236,145.575,58.89,87,100,17.07,JP,1631914869
Suntar,62.1444,117.6319,34.14,86,99,6.76,RU,1631914869
Carauari,-4.8828,-66.8958,85.01,61,93,2.37,BR,1631914870
Orlik,52.5178,99.825,41.97,62,30,2.1,RU,1631914870
Molina,-35.1167,-71.2833,58.28,78,71,6.44,CL,1631914871
Port Lincoln,-34.7333,135.8667,54.64,61,84,16.35,AU,1631914871
Kahului,20.8947,-156.47,81.97,80,100,15.48,US,1631914871
Heihe,50.2441,127.4902,40.51,91,12,6.11,CN,1631914872
Debre Birhan,9.6833,39.5333,49.73,64,7,2.77,ET,1631914872
Sooke,48.3746,-123.7276,60.17,96,100,5.79,CA,1631914700
Mapiripán,2.8892,-72.1256,83.01,72,24,2.53,CO,1631914873
Verkhnevilyuysk,63.4453,120.3167,38.73,59,100,9.08,RU,1631914873
Flores,16.9226,-89.8994,92.82,51,86,2.95,GT,1631914874
Ararat,39.8317,44.7049,64.4,54,45,9.78,AM,1631914874
La Paz,-16.5,-68.15,50.99,65,96,6.4,BO,1631914685
Kabo,7.6994,18.629,71.94,93,100,2.39,CF,1631914875
Cooma,-36.2333,149.1333,51.33,89,81,11.74,AU,1631914875
Peniche,39.3558,-9.3811,67.28,86,53,19.53,PT,1631914875
Pevek,69.7008,170.3133,32.68,100,100,1.99,RU,1631914876
Robstown,27.7903,-97.6689,96.94,42,3,10.83,US,1631914876
Kholmogory,64.2229,41.656,41.31,64,100,3.71,RU,1631914877
Marabu,4.4148,114.0089,76.05,88,100,3.96,MY,1631914877
Fort Nelson,58.8053,-122.7002,56.44,42,98,1.12,CA,1631914877
Karera,25.4667,78.15,73.72,96,100,7.18,IN,1631914878
Pergamino,-33.89,-60.5736,69.19,52,0,7.47,AR,1631914878
Linares,-35.85,-71.6,58.28,77,96,5.3,CL,1631914879
Eureka,40.8021,-124.1637,79.66,60,96,3.0,US,1631914879
Lokosovo,61.1333,74.8167,42.15,76,100,5.32,RU,1631914880
Llano Largo,7.9,-80.4333,83.23,74,100,5.75,PA,1631914880
San Miguel,13.4833,-88.1833,88.02,68,3,0.54,SV,1631914880
Daru,-9.0763,143.2092,75.97,81,100,18.03,PG,1631914881
Vestmanna,62.1564,-7.1664,50.02,87,100,17.52,FO,1631914881
Erechim,-27.6342,-52.2739,55.0,98,100,6.49,BR,1631914881
Hamilton,39.1834,-84.5333,89.26,61,24,2.51,US,1631914822
Marinette,45.1,-87.6307,72.3,56,100,9.15,US,1631914882
College,64.8569,-147.8028,54.28,57,12,2.13,US,1631914851
Campo Formoso,-10.5075,-40.3214,71.78,50,13,6.53,BR,1631914883
Balarāmpur,23.1167,86.2167,75.81,93,100,2.98,IN,1631914883
Emerald,-23.5333,148.1667,66.11,70,2,13.11,AU,1631914884
Real,14.6625,121.6047,80.91,89,93,5.88,PH,1631914884
Maniitsoq,65.4167,-52.9,36.55,50,27,4.21,GL,1631914884
Cocorit,27.5833,-109.9667,92.71,54,79,8.28,MX,1631914885
Lewistown,40.5992,-77.5714,80.85,85,82,1.48,US,1631914885
Abay,49.6311,72.8539,44.17,94,9,5.44,KZ,1631914885
Luwingu,-10.2621,29.9271,68.2,37,8,2.46,ZM,1631914886
Finnsnes,69.2296,17.9811,40.75,83,17,4.88,NO,1631914886
el Prat de Llobregat,41.3278,2.0947,76.1,77,0,1.01,ES,1631914887
Diego de Almagro,-26.3667,-70.05,72.36,18,0,6.15,CL,1631914887
Dera Ghazi Khan,30.0561,70.6348,88.86,29,1,5.01,PK,1631914887
Tabou,4.423,-7.3528,75.85,91,94,7.54,CI,1631914888
Beian,63.6559,9.5683,52.02,72,97,13.11,NO,1631914888
Lingyuan,41.24,119.4011,54.86,71,51,2.86,CN,1631914889
Pagudpud,18.5616,120.7868,79.9,81,18,4.92,PH,1631914889
Verkh-Usugli,52.7,115.1667,32.95,69,78,1.7,RU,1631914890
Upington,-28.4478,21.2561,53.76,20,0,11.23,ZA,1631914890
Homa Bay,-0.5273,34.4571,66.42,84,100,5.17,KE,1631914890
Pangnirtung,66.1451,-65.7125,35.11,77,100,2.68,CA,1631914891
Hirara,24.8,125.2833,83.35,73,10,2.8,JP,1631914891
Beloha,-25.1667,45.05,65.44,78,99,9.95,MG,1631914892
Banjarmasin,-3.3244,114.591,74.07,95,97,2.77,ID,1631914818
Batī,11.1833,40.0167,69.62,38,5,8.23,ET,1631914892
Durango,24.8333,-104.8333,80.29,27,40,12.01,MX,1631914655
Ribas do Rio Pardo,-20.4431,-53.7592,91.67,19,37,2.35,BR,1631914893
Ati,13.2154,18.3353,85.3,54,97,10.6,TD,1631914893
Epe,6.5841,3.9834,77.16,92,54,5.46,NG,1631914894
Bryan,30.6744,-96.37,94.33,51,38,4.14,US,1631914656
Copiapó,-27.3667,-70.3333,72.75,33,2,6.2,CL,1631914894
Rawlins,41.7911,-107.2387,76.23,13,0,17.07,US,1631914891
Coyhaique,-45.5752,-72.0662,41.43,92,80,7.14,CL,1631914895
Benguela,-12.5763,13.4055,70.72,83,22,3.83,AO,1631914896
Dudinka,69.4058,86.1778,33.94,83,23,14.54,RU,1631914896
Rio Grande,-32.035,-52.0986,61.95,88,100,14.23,BR,1631914896
Komarikhinskiy,58.0979,57.1163,35.65,95,100,4.0,RU,1631914897
Lodwar,3.1191,35.5973,89.1,39,82,7.65,KE,1631914897
Placetas,22.3119,-79.6533,81.61,77,31,11.48,CU,1631914897
Mier,26.4333,-99.15,94.68,32,7,8.25,MX,1631914898
Anta,25.15,76.3,74.55,95,96,10.38,IN,1631914898
Santa Cruz de la Sierra,-17.8,-63.1667,91.72,27,5,11.23,BO,1631914899
Healdsburg,38.6105,-122.8692,92.32,51,0,1.01,US,1631914899
Parrita,9.5201,-84.3225,89.98,83,75,6.15,CR,1631914899
Veracruz,19.3333,-96.6667,82.87,75,100,4.63,MX,1631914900
Mercedes,-34.6515,-59.4307,65.03,68,0,7.87,AR,1631914900
Christchurch,-43.5333,172.6333,49.91,66,7,4.0,NZ,1631914652
Lagoa,39.05,-27.9833,67.51,71,100,8.16,PT,1631914901
Goygol,40.5869,46.3158,61.97,84,66,2.19,AZ,1631914901
Skjervøy,70.0311,20.9714,45.55,74,14,11.14,NO,1631914902
Zaranj,30.9667,61.8833,81.21,14,0,9.73,AF,1631914902
Kibala,9.1104,18.3463,73.36,93,100,3.8,TD,1631914902
Sikonge,-5.6333,32.7667,73.13,51,17,2.86,TZ,1631914903
Verkhoyansk,67.5447,133.385,38.97,96,100,6.17,RU,1631914903
Fortuna,40.5982,-124.1573,79.41,44,66,1.99,US,1631914903
Arlit,18.7369,7.3853,92.48,11,0,9.93,NE,1631914666
Yima,34.7381,111.8839,63.73,98,100,9.84,CN,1631914904
Zemio,5.0314,25.1361,68.32,99,100,2.8,CF,1631914904
Acapulco de Juárez,16.8634,-99.8901,82.81,78,99,2.51,MX,1631914823
Mianyang,31.4593,104.7542,65.75,95,100,5.08,CN,1631914905
Seoul,37.5683,126.9778,65.79,74,39,2.68,KR,1631914661
Mâncio Lima,-7.6142,-72.8958,79.68,66,76,1.21,BR,1631914905
Maxixe,-23.8597,35.3472,69.01,60,79,16.2,MZ,1631914906
Ivolginsk,51.7492,107.2837,44.33,76,86,4.07,RU,1631914906
Ginir,7.1333,40.7,64.76,70,100,4.41,ET,1631914907
Nicoya,10.1483,-85.452,82.83,80,78,1.81,CR,1631914612
Cascais,38.6979,-9.4215,68.47,72,7,3.0,PT,1631914908
Darhan,49.4867,105.9228,49.05,83,85,2.51,MN,1631914908
Padang,-0.9492,100.3543,76.89,87,94,2.66,ID,1631914908
Aubenas,44.6201,4.3899,63.45,86,15,4.83,FR,1631914909
Carballo,43.213,-8.691,62.87,93,0,2.3,ES,1631914909
Wenling,28.3669,121.36,74.34,81,98,3.71,CN,1631914910
Tarsus,36.9188,34.8784,74.95,46,0,4.16,TR,1631914910
Dunedin,-45.8742,170.5036,47.8,61,44,7.0,NZ,1631914911
Wana,32.2989,69.5725,76.14,48,0,2.89,PK,1631914911
Laas,46.6166,10.7002,60.37,89,8,2.53,IT,1631914911
São Luiz Gonzaga,-28.4083,-54.9608,61.38,98,100,7.47,BR,1631914912
Katsuura,35.1333,140.3,77.74,81,100,23.49,JP,1631914912
Srīvardhan,18.0333,73.0167,76.84,89,96,4.59,IN,1631914912
Pacific Grove,36.6177,-121.9166,79.75,77,35,5.01,US,1631914913
Khāsh,28.2211,61.2158,71.78,9,0,0.2,IR,1631914913
Timrå,62.487,17.3257,46.67,63,38,3.83,SE,1631914914
Paoua,7.2427,16.4406,70.34,92,100,2.93,CF,1631914914
Angoche,-16.2325,39.9086,74.46,88,12,5.91,MZ,1631914915
Kampene,-3.6,26.6667,68.11,99,100,2.46,CD,1631914915
Karratha,-20.7377,116.8463,70.52,33,0,15.97,AU,1631914915
Punta Alta,-38.8759,-62.0736,64.74,47,14,6.42,AR,1631914916
Warri,5.5167,5.75,75.72,93,96,3.36,NG,1631914916
Durban,-29.8579,31.0292,60.03,76,81,4.0,ZA,1631914725
Zhezkazgan,47.8043,67.7144,49.98,61,0,6.15,KZ,1631914917
Santarém,-2.4431,-54.7083,75.65,80,57,5.23,BR,1631914917
Rørvik,64.8621,11.2373,50.31,66,86,23.8,NO,1631914917
Conakry,9.538,-13.6773,79.97,82,21,10.27,GN,1631914721
Lincoln,40.8,-96.667,77.02,65,99,4.0,US,1631914918
Paka,4.6374,103.4368,76.48,90,86,2.86,MY,1631914919
Mackay,-21.15,149.2,72.05,63,12,13.62,AU,1631914919
Preobrazheniye,42.9019,133.9064,60.06,76,0,3.76,RU,1631914919
Río Tercero,-32.173,-64.1141,68.49,21,0,8.84,AR,1631914920
Iquitos,-3.7481,-73.2472,78.94,86,90,1.5,PE,1631914920
Soyo,-6.1349,12.3689,73.78,81,83,8.99,AO,1631914921
Ketchikan,55.3422,-131.6461,45.43,94,100,4.65,US,1631914921
Nome,64.5011,-165.4064,43.11,74,56,11.52,US,1631914664
Manavālakurichi,8.1333,77.3,78.21,88,100,12.55,IN,1631914922
Progreso,21.2833,-89.6667,88.11,79,97,14.0,MX,1631914922
Eldorado,-23.7869,-54.2836,76.87,58,21,7.25,BR,1631914922
Faro,37.0194,-7.9322,71.85,75,39,16.28,PT,1631914923
Assiut,27.181,31.1837,81.5,37,0,18.54,EG,1631914923
Iberia,29.9502,-91.7507,86.05,77,70,9.22,US,1631914924
La Reforma,18.1,-91.0167,85.23,81,96,5.28,MX,1631914924
Saint-Leu,-21.15,55.2833,67.68,78,5,9.33,RE,1631914925
Quelimane,-17.8786,36.8883,74.01,92,65,5.14,MZ,1631914925
Biloela,-24.4167,150.5,65.5,65,0,7.23,AU,1631914925
Kota,25.1833,75.8333,75.6,94,97,10.58,IN,1631914926
Maridi,4.9158,29.4742,67.1,99,100,4.09,SS,1631914926
Dobson,36.3957,-80.7226,84.27,68,27,6.46,US,1631914927
Kemijärvi,66.7131,27.4306,41.43,71,100,2.17,FI,1631914928
Laguna,38.421,-121.4238,94.21,41,0,4.0,US,1631914928
Morehead,37.2711,-87.1764,83.84,83,80,6.51,US,1631914928
Praia da Vitória,38.7333,-27.0667,68.76,79,97,7.45,PT,1631914799
